LugarId;Nombre;DireccionLat;DireccionLong
1;ORT Centro;-34.9038030702573;-56.1906308576968
2;Plaza Zabala;-34.9076522899769;-56.2081834578033
3;Parque Rodo;-34.9130011789297;-56.1676477718952
4;OCA;-34.9046223312881;-56.1855983292849
5;IMM;-34.9062594756754;-56.1861215799075
6;Disco 3;-34.9027023567146;-56.1731477182165